,City,Country,Max Temp($^\circ$F),Current Weather,Lat,Lng,Hotel Name
0,Pimenta Bueno,BR,72.73,heavy intensity rain,-11.6725,-61.1936,Cristalina Palace Hotel
3,Hobart,AU,51.66,broken clouds,-42.8794,147.3294,St Ives Hobart Accommodation Tasmania
4,Chalette-Sur-Loing,FR,52.07,overcast clouds,48.0134,2.7359,ibis Montargis
6,Ishigaki,JP,73.53,mist,24.3448,124.1572,Hotel Peace Land Ishigakijima
8,New Norfolk,AU,51.3,overcast clouds,-42.7826,147.0587,The Shingles Riverside Cottages
9,Cidreira,BR,69.62,clear sky,-30.1811,-50.2056,Hotel Castelo
10,Guiyang,CN,50.49,mist,26.5833,106.7167,Guo Tai Hotel Guiyang
11,Pangkalanbuun,ID,73.27,overcast clouds,-2.6833,111.6167,Grand Kecubung Hotel
12,Port Blair,IN,76.66,overcast clouds,11.6667,92.75,"Welcomhotel By ITC Hotels, Bay Island, Port Blair"
13,Atuona,PF,77.83,clear sky,-9.8,-139.0333,Villa Enata
15,Grand Baie,MU,70.27,scattered clouds,-20.0182,57.5802,Trou aux Biches Beachcomber Golf Resort & Spa
16,Vaini,TO,77.16,scattered clouds,-21.2,-175.2,Keleti Beach Resort
17,Bredasdorp,ZA,62.44,light rain,-34.5322,20.0403,Bredasdorp Country Manor
19,Manavalakurichi,IN,77.2,moderate rain,8.1333,77.3,Jebinrio home
22,Ambon,ID,77.14,few clouds,-3.6954,128.1814,Swiss-Belhotel Ambon
24,Avarua,CK,77.05,broken clouds,-21.2078,-159.775,Paradise Inn
25,Mataura,NZ,70.95,overcast clouds,-46.1927,168.8643,Ellie's Villa
26,Cape Town,ZA,63.12,broken clouds,-33.9258,18.4232,"Radisson Blu Hotel Waterfront, Cape Town"
29,Tarakan,ID,76.5,scattered clouds,3.3,117.6333,RedDoorz Syariah near Taman Berlabuh Tarakan
32,Chuy,UY,62.2,clear sky,-33.6971,-53.4616,Nuevo Hotel Plaza
34,Parga,GR,59.13,overcast clouds,39.2831,20.3964,Palatino Hotel
35,Denpasar,ID,78.46,few clouds,-8.65,115.2167,OYO 3156 Hotel Warta Dua
36,Port Alfred,ZA,62.19,broken clouds,-33.5906,26.891,The Halyards Hotel & Spa
39,Winslow,US,50.18,clear sky,35.0242,-110.6974,Best Western Plus Winslow Inn
40,San Luis,AR,78.03,overcast clouds,-33.295,-66.3356,Huarpes Hotel
41,Salalah,OM,75.29,clear sky,17.0151,54.0924,"HAMDAN PLAZA HOTEL SALALAH, an HTG Hotel"
42,Ushuaia,AR,55.02,light rain,-54.8,-68.3,Albatross Hotel
45,Victoria,HK,75.38,scattered clouds,22.2855,114.1577,Mini Central
52,Bluff,NZ,60.76,overcast clouds,-46.6,168.3333,Bluff Homestead - Guesthouse & Campervan Park
54,Rikitea,PF,74.97,overcast clouds,-23.1203,-134.9692,People ThankYou
55,Hasaki,JP,50.22,scattered clouds,35.7333,140.8333,Inubosaki Kanko Hotel
58,Ribeira Grande,PT,66.78,scattered clouds,38.5167,-28.7,Quinta da Meia Eira
59,Amaigbo,NG,74.07,broken clouds,5.7892,7.8383,IKEMBA GUEST HOUSE
61,Illapel,CL,72.46,overcast clouds,-31.6308,-71.1653,Hotel Londres
62,Puerto Ayora,EC,76.96,broken clouds,-0.7393,-90.3518,Finch Bay Galapagos Hotel
63,Fatehpur,IN,66.16,clear sky,25.9333,80.8,Hotel Bombay Lodge
66,Joao Camara,BR,75.31,few clouds,-5.5375,-35.8197,Pousada Miguel Teixeira
69,Busselton,AU,61.05,broken clouds,-33.65,115.3333,Observatory Guest House
75,Concordia,AR,73.85,clear sky,-31.393,-58.0209,Palmar Hotel Casino
78,Port Lincoln,AU,56.55,broken clouds,-34.7333,135.8667,Port Lincoln Hotel
80,Flinders,AU,64.18,scattered clouds,-34.5833,150.8552,Shellharbour Resort & Conference Centre
82,Mali,GN,63.7,overcast clouds,12.079,-12.2982,Hotel La Dame de Mali
83,Kapaa,US,79.12,few clouds,22.0752,-159.319,Sheraton Kauai Coconut Beach Resort
89,Ponta Do Sol,PT,68.72,overcast clouds,32.6667,-17.1,Hotel do Campo
90,Castro,BR,59.67,clear sky,-24.7911,-50.0119,CHACARA BAILLY
91,Rayagada,IN,58.91,clear sky,19.1667,83.4167,"Hotel Swagath, Rayagada"
94,Hualmay,PE,65.91,scattered clouds,-11.0964,-77.6139,Hotel Villa Kitzia Huacho
96,Guerrero Negro,MX,72.64,few clouds,27.9769,-114.0611,"Casa Laguna, Bed & Breakfast"
99,Esperance,AU,57.04,few clouds,-33.8667,121.9,Hospitality Esperance
101,Saint-Francois,FR,51.24,broken clouds,46.4154,3.9054,Maison Vin d'Hus
103,Bengkulu,ID,75.04,overcast clouds,-3.8004,102.2655,Grage Hotel Bengkulu
104,Artyom,AZ,50.14,overcast clouds,40.4723,50.333,Nazimin bazdigxanasi
105,Geraldton,AU,59.41,clear sky,-28.7667,114.6,Broadwater Mariner Resort
106,Mao,ES,68.56,clear sky,39.8885,4.2658,ARTIEM Capri
109,Faanui,PF,79.47,overcast clouds,-16.4833,-151.75,Bora-Bora Pearl Beach Resort & Spa
112,Minab,IR,79.12,clear sky,27.1467,57.0801,Bam campground
114,Guapi,CO,76.05,light rain,2.5708,-77.8854,Hotel Emperador Guapí
115,Sinnamary,GF,79.02,overcast clouds,5.3833,-52.95,ALETHEIA Appartement Sinnamary
119,Port Elizabeth,ZA,62.89,clear sky,-33.918,25.5701,39 On Nile Guest House
120,Inhambane,MZ,68.02,clear sky,-23.865,35.3833,Oceano
125,Punta Arenas,CL,57.31,clear sky,-53.15,-70.9167,Hotel Hain
127,Guangyuan,CN,54.5,overcast clouds,32.442,105.823,Guangyuan Poetry Hotel
128,Mount Isa,AU,78.57,scattered clouds,-20.7333,139.5,ibis Styles Mt Isa Verona
130,Aswan,EG,67.3,clear sky,24.0934,32.907,Nuba Nile
135,Mar Del Plata,AR,73.42,clear sky,-38.0023,-57.5575,Gran Hotel Mar del Plata
139,Tagusao,PH,79.86,overcast clouds,9.1924,117.8141,Caycay future beach resort
140,Bhainsa,IN,68.05,clear sky,26.9548,76.9012,Rizwan pathan
147,Mount Gambier,AU,54.16,light rain,-37.8333,140.7667,The Commodore
148,Iguape,BR,69.85,clear sky,-24.7081,-47.5553,Hotel Pousada Nossa Senhora do Carmo
150,Ixtapa,MX,79.23,clear sky,20.7,-105.2,hotel la terminal
152,Mindelo,CV,74.75,few clouds,16.8901,-24.9804,Hotel Gaudi
153,Tuatapere,NZ,68.54,overcast clouds,-46.1333,167.6833,Ron and Tony's Bed & Breakfast
155,Coihaique,CL,58.95,broken clouds,-45.5752,-72.0662,Diego De Almagro Coyhaique
158,Pedasi,PA,79.07,light rain,7.5333,-80.0333,Hotel Casa de Campo Pedasí
161,Mahebourg,MU,70.09,few clouds,-20.4081,57.7,Shandrani Beachcomber Resort & Spa
162,Acarau,BR,78.71,few clouds,-2.8856,-40.12,castelo pizzaria
165,Tam Ky,VN,72.99,clear sky,15.5667,108.4833,Nhà Nghỉ Phương Hòa
167,Kampar,MY,78.94,overcast clouds,4.3,101.15,Grand Kampar Hotel
169,Marsh Harbour,BS,79.74,few clouds,26.5412,-77.0636,Abaco Beach Resort
173,Arraial Do Cabo,BR,71.06,moderate rain,-22.9661,-42.0278,Pousada Porto Praia
175,Shingu,JP,53.83,clear sky,33.7333,135.9833,Shingu UI Hotel
178,Saint-Philippe,RE,69.39,light rain,-21.3585,55.7679,Le four à pain
179,Chicama,PE,64.94,broken clouds,-7.8447,-79.1469,Balihai Bungalows
183,Fuente Palmera,ES,61.75,overcast clouds,37.7049,-5.0996,CASA RURAL ECUESTRE
184,Todos Santos,MX,77.67,clear sky,23.45,-110.2167,Hotel California Todos Santos
186,Malanje,AO,60.91,light rain,-9.5402,16.341,Hotel Ginga
187,Lompoc,US,69.94,clear sky,34.6391,-120.4579,"Holiday Inn Express Lompoc, an IHG Hotel"
188,Minas,UY,58.77,clear sky,-34.3759,-55.2377,Hotel Minas
189,Katsuura,JP,55.42,clear sky,35.1333,140.3,Katsuura Hotel Mikazuki
192,Riyadh,SA,68.14,clear sky,24.6877,46.7219,"InterContinental Riyadh, an IHG Hotel"
193,Lamu,KE,77.76,broken clouds,-2.2717,40.902,Lamu House
194,East London,ZA,66.27,overcast clouds,-33.0153,27.9116,Tu Casa
195,Havelock,US,71.58,overcast clouds,34.8791,-76.9013,Sherwood Motel
196,Mitsamiouli,KM,77.85,overcast clouds,-11.3847,43.2844,Foyer ADM
197,Sao Joao Da Barra,BR,77.09,overcast clouds,-21.6403,-41.0511,Pousada Porto De Canoas
198,Kruisfontein,ZA,56.88,broken clouds,-34.0033,24.7314,Oyster Bay House Rental
201,Tulungagung,ID,76.71,overcast clouds,-8.0657,111.9025,Lojikka Hotel
206,Kiama,AU,64.38,scattered clouds,-34.6833,150.8667,The Sebel Kiama Harbourside
207,San Vicente,AR,59.61,clear sky,-26.6167,-54.1333,Complejo Turístico Farelluk
208,Coquimbo,CL,65.93,clear sky,-29.9533,-71.3436,Hotel San Juan
209,Eirunepe,BR,74.84,overcast clouds,-6.6603,-69.8736,Hotel novo Acre & Comercial Aguiar
210,Russell,US,59.2,overcast clouds,32.3502,-85.1999,Macs
211,Camacha,PT,63.82,few clouds,33.0833,-16.3333,Hotel Porto Santo & Spa
212,Mildura,AU,54.07,clear sky,-34.2,142.15,Mercure Hotel Mildura
213,Bambous Virieux,MU,70.05,few clouds,-20.3428,57.7575,Casa Tia Villa
214,San Quintin,MX,65.39,clear sky,30.4833,-115.95,Don Eddie's Sport Fishing Center
215,Colotlan,MX,76.1,clear sky,22.1,-103.2667,Hotel Hacienda de los Galvez
218,Chipinge,ZW,58.96,clear sky,-20.1883,32.6236,Chipinge Breeze Lodge
220,Launceston,AU,54.81,scattered clouds,-41.45,147.1667,Hotel Grand Chancellor Launceston
221,Kahului,US,79.97,broken clouds,20.8947,-156.47,Maui Seaside Hotel
222,Sahuaripa,MX,76.69,overcast clouds,29.05,-109.2333,Estatua de Sahuaripa
224,Marilandia,BR,73.09,overcast clouds,-19.4128,-40.5417,Hotel Espaço Verde
225,San Patricio,US,59.54,broken clouds,28.017,-97.5169,"Motel 6 Sinton, TX"
226,Laguna,US,70.45,clear sky,38.421,-121.4238,"Holiday Inn Express & Suites Elk Grove Central - Hwy 99, an IHG Hotel"
230,Sao Filipe,CV,76.06,broken clouds,14.8961,-24.4956,Hotel Xaguate
231,Hermanus,ZA,60.8,light rain,-34.4187,19.2345,Misty Waves Boutique Hotel
233,Maceio,BR,76.44,clear sky,-9.6658,-35.7353,Hotel Ponta Verde Maceió
237,Manjacaze,MZ,62.94,clear sky,-24.7117,33.8828,Hotel Gani
239,Dubbo,AU,57.33,broken clouds,-32.25,148.6167,Quality Inn Dubbo International
246,Tateyama,JP,55.33,few clouds,34.9833,139.8667,Tateyama Seaside Hotel
247,Dunedin,NZ,58.21,light rain,-45.8742,170.5036,Scenic Hotel Southern Cross
248,Chimbote,PE,65.82,broken clouds,-9.0853,-78.5783,Hotel Briliá
250,Saint George,US,55.44,clear sky,37.1041,-113.5841,Best Western Plus Abbey Inn
251,Babat,ID,78.22,overcast clouds,-7.1128,112.1635,Kandange Kiwil DG
252,Lucapa,AO,64.9,light rain,-8.4192,20.7447,Lírio Mendes
254,Bustamante,MX,60.78,clear sky,26.5333,-100.5,Hotel Hacienda los Nogales
256,Tautira,PF,77.92,light rain,-17.7333,-149.15,Pension Oaoa
257,Faya,SA,57.31,few clouds,18.3851,42.4509,شيلة نسايم
259,Erzin,TR,59.58,overcast clouds,36.9559,36.2,Artemis Otel
260,Vung Tau,VN,78.4,overcast clouds,10.346,107.0843,Seaside Resort
261,Qui Nhon,VN,74.71,few clouds,13.7667,109.2333,Seagull Hotel
262,Meulaboh,ID,74.95,light rain,4.1363,96.1285,Kost Pria
264,Bandarbeyla,SO,78.62,clear sky,9.4942,50.8122,JABIR HOTEL
268,Salima,MW,76.15,broken clouds,-13.7804,34.4587,YAMIKANI LODGE
269,Makakilo City,US,79.45,clear sky,21.3469,-158.0858,Marriott's Ko Olina Beach Club
270,Marzuq,YE,62.08,clear sky,14.4,46.4667,حيد القفلة
271,Mumford,GH,79.56,light rain,5.2618,-0.759,Peace Guest House
273,Sonoita,MX,69.57,clear sky,31.85,-112.8333,Hotel internacional
275,Shahr-E Babak,IR,50.36,clear sky,30.1165,55.1186,سلاطین مس و نقره
276,Nova Vicosa,BR,76.77,overcast clouds,-17.8919,-39.3719,Pousada Porto do Sol
277,Horsham,GB,52.52,light rain,51.064,-0.3272,Springfields Hotel
279,Kikwit,CD,70.12,light rain,-5.041,18.8162,HOTEL PLACE YALABA
280,Port Macquarie,AU,70.9,clear sky,-31.4333,152.9167,Rydges Port Macquarie
281,Ponta Delgada,PT,66.51,light rain,37.7333,-25.6667,Vila Nova Hotel
282,Buenaventura,CO,75.27,overcast clouds,3.8801,-77.0312,Hotel Victoria
286,Carnarvon,AU,71.15,clear sky,-24.8667,113.6333,Hospitality Carnarvon
288,Nabire,ID,79.23,overcast clouds,-3.3667,135.4833,Hotel Nusantara I
293,Portland,US,57.47,clear sky,45.5234,-122.6762,Embassy Suites by Hilton Portland Downtown
294,Fayaoue,NC,77.13,clear sky,-20.65,166.5333,Chez Dydyce Guesthouse
295,Along,IN,53.83,scattered clouds,28.1667,94.7667,Hotel West
296,Kabare,CD,60.66,overcast clouds,-2.4683,28.8242,Hôtel Panorama
299,Kaitangata,NZ,59.85,overcast clouds,-46.2817,169.8464,Kaitangata Motor Camp
300,Nishihara,JP,70.88,broken clouds,26.1842,127.7558,Minshuku Agaihama
306,Karratha,AU,75.29,few clouds,-20.7377,116.8463,ibis Styles Karratha
307,Atambua,ID,79.88,broken clouds,-9.1061,124.8925,Ros Muskanan
310,Sao Jose Da Coroa Grande,BR,77.22,scattered clouds,-8.8978,-35.1478,Crôa Mares Hotel
313,Chodavaram,IN,63.93,clear sky,17.8333,82.95,Ganesh Defence Academy chodavadaram hostel
314,Nouadhibou,MR,78.78,clear sky,20.931,-17.0347,El Medina
315,Vila Velha,BR,76.95,light rain,-20.3297,-40.2925,Hotel Vitória Palace
316,Huejuquilla El Alto,MX,72.77,clear sky,22.6,-103.8667,Hotel Huexuquillan
319,Lebu,CL,59.14,scattered clouds,-37.6167,-73.65,Hostal Las Lilas
326,Viedma,AR,69.93,clear sky,-40.8135,-62.9967,Hotel Cristal
328,Taltal,CL,61.92,scattered clouds,-25.4,-70.4833,Residencial Karime
331,Paramonga,PE,65.21,scattered clouds,-10.6667,-77.8333,"Av Douglas Stephen, Los Chalets Paramonga, Lima, Perú"
334,Touros,BR,78.22,few clouds,-5.1989,-35.4608,INN NEW HORIZON
335,Whitianga,NZ,67.12,scattered clouds,-36.8333,175.7,Beachside Resort Whitianga
337,Marechal Candido Rondon,BR,65.1,light rain,-24.5561,-54.0567,Hotel Bender
338,Pisco,PE,68.05,clear sky,-13.7,-76.2167,Hotel San Isidro Oficial
339,Rantepao,ID,69.17,overcast clouds,-2.9701,119.8978,Hotel Luta Resort
341,Goya,AR,77.65,broken clouds,-29.14,-59.2626,Apart Costanera Goya
344,Rocha,UY,58.41,clear sky,-34.4833,-54.3333,Hotel Arrarte
347,Tutoia,BR,79.05,clear sky,-2.7619,-42.2744,Pousada Guará's
348,Port Augusta,AU,59.58,clear sky,-32.5,137.7667,Majestic Oasis Apartments
352,Takaka,NZ,65.55,overcast clouds,-40.85,172.8,Golden Bay Motels
355,Mayumba,GA,77.23,overcast clouds,-3.432,10.6554,LIKWALE LODGE
356,Souillac,MU,70.18,few clouds,-20.5167,57.5167,Shanti Maurice Resort & Spa
357,Gat,IL,64.4,clear sky,31.61,34.7642,OlusHome
363,Sampit,ID,73.15,overcast clouds,-2.5333,112.95,Aquarius Boutique Hotel Sampit
364,San Jeronimo,PE,54.7,broken clouds,-11.9472,-75.2829,Tuki Llajta Pueblo Bonito Eco Lodge
366,Ramapuram,IN,68.45,clear sky,13.1167,79.2,Kotha kota
367,Hadejia,NG,71.28,scattered clouds,12.4498,10.0444,Kasuwar Kuda Hadejia General Hospital Road
371,Jalu,LY,60.26,clear sky,29.0331,21.5482,صاحبة الفخامة
372,Kindu,CD,66.61,overcast clouds,-2.95,25.95,Résidence Okanda
379,Las Cruces,US,59.34,broken clouds,32.3123,-106.7783,SpringHill Suites by Marriott Las Cruces
380,Byron Bay,AU,77.7,clear sky,-28.65,153.6167,Backpackers Inn
381,Quang Ngai,VN,73.33,clear sky,15.1167,108.8,Central Hotel
382,Asfi,MA,66.67,broken clouds,32.2994,-9.2372,Hôtel Abda
384,Calbuco,CL,60.01,light rain,-41.768,-73.1273,Hotel Colonial
385,Lata,PT,60.82,overcast clouds,40.1629,-8.3327,Terraços da Beira
391,Vila Franca Do Campo,PT,66.2,scattered clouds,37.7167,-25.4333,Pestana Bahia Praia
396,Namibe,AO,65.61,few clouds,-15.1961,12.1522,Hotel Chik Chik Namibe
397,Nelson Bay,AU,65.08,broken clouds,-32.7167,152.15,Mantra Nelson Bay
400,Wanning,CN,75.34,scattered clouds,18.8003,110.3967,Paradise Hotel
401,Surt,LY,66.4,clear sky,31.2089,16.5887,فندق المدينة
402,Treinta Y Tres,UY,62.58,clear sky,-33.2333,-54.3833,Jardines Apart-Hotel
406,Mae Sai,TH,67.68,overcast clouds,20.4335,99.8762,Piyaporn Hill Paradise Hotel
407,Yarada,IN,71.74,clear sky,17.65,83.2667,Yarada Jungle Beach Resorts
408,Mvuma,ZW,58.8,clear sky,-19.2792,30.5283,Nyangombe Backpackers
409,Waipawa,NZ,70.07,clear sky,-41.4122,175.5153,Tora Coastal Walk
410,Khaga,IN,65.77,clear sky,25.7833,81.1167,Shri Ram Angel Marriage Hall
413,Puri,IN,63.12,clear sky,19.8,85.85,OYO 1577 Hotel Shree Hari Grand
414,Mendi,PG,66.4,broken clouds,-6.1761,143.6513,Kiburu Lodge
415,Karachi,PK,69.62,haze,24.9056,67.0822,Sadaat
418,Ako,JP,51.37,clear sky,34.75,134.4,Toyoko-Inn Banshu Ako ekimae
421,La Asuncion,VE,73.13,light rain,11.0333,-63.8628,Colinas de Matasiete
422,Sohag,EG,61.65,clear sky,26.557,31.6948,Civil Registry - Sohag 1
424,Ampanihy,MG,73.69,broken clouds,-24.7,44.75,HOTEL SHARRON AMPANIHY OUEST
426,Cristobal Obregon,MX,74.84,few clouds,16.35,-93.5333,La Tigra
428,Kilindoni,TZ,78.35,scattered clouds,-7.9139,39.6668,Bustani B&B
430,Grand Gaube,MU,67.37,broken clouds,-20.0064,57.6608,Veranda Paul et Virginie Hotel & Spa
431,Ipameri,BR,74.34,overcast clouds,-17.7219,-48.1597,Real Hotel
434,Carauari,BR,79.14,overcast clouds,-4.8828,-66.8958,Hotel Fellip
437,Empangeni,ZA,63.97,few clouds,-28.762,31.8933,Peermont Metcourt Hotel at Umfolozi
438,Vao,NC,74.37,few clouds,-22.6667,167.4833,Hotel Kou-Bugny
439,Hirado,JP,51.39,clear sky,33.3597,129.5531,Samson Hotel
440,Turayf,SA,59.88,scattered clouds,31.6725,38.6637,Turaif
441,Cabedelo,BR,78.49,scattered clouds,-6.9811,-34.8339,Pousada Camboinha
443,Itau De Minas,BR,69.46,overcast clouds,-20.7394,-46.7522,Hotel fenix
445,Yining,CN,54.36,broken clouds,29.0361,114.5636,Xiushui Hotel
446,Raudeberg,NO,53.87,broken clouds,61.9875,5.1352,Nordre Silda.
452,Cayeli,TR,54.7,clear sky,41.0923,40.7292,Grand Cavusoglu Hotel
453,Denia,ES,71.85,broken clouds,38.8408,0.1057,Hotel Port Dénia
454,Pyay,MM,69.12,few clouds,18.8167,95.2167,Shwe Pyi Thar
458,Lahijan,IR,56.68,broken clouds,37.2061,50.0029,Abrishami Hotel
462,Ha Tinh,VN,72.32,few clouds,18.3333,105.9,Phú Quý
463,Sur,OM,78.1,clear sky,22.5667,59.5289,Sur Plaza Hotel
468,Marawi,PH,71.22,overcast clouds,7.9986,124.2928,Derogongan Residence
470,Enterprise,US,58.64,few clouds,36.0252,-115.2419,Las Vegas Motorcoach Resort
473,Cutervo,PE,53.56,overcast clouds,-6.379,-78.8157,Hotel Arena Blanca Cutervo
474,Tete,MZ,76.64,broken clouds,-16.1564,33.5867,Zambeze Paraíso Misterioso
475,Obera,AR,63.5,clear sky,-27.4871,-55.1199,CABAÑAS DORALIA
480,Loum,CM,72.81,light rain,4.7182,9.7351,hôtel Valeri
481,Kutum,SD,62.28,clear sky,14.2,24.6667,Dibbo areaمنطقة دبو
482,Soyo,AO,76.91,overcast clouds,-6.1349,12.3689,Hospedaria ndozi'ame
483,Shimoda,JP,57.11,clear sky,34.6667,138.95,Shimoda Tokyu Hotel
484,Praxedis Guerrero,MX,55.63,overcast clouds,31.3667,-106.0167,Congregación placitas de Otero
485,Sandy Bay,AU,51.69,broken clouds,-42.913,147.3532,St Ives Hobart Accommodation Tasmania
488,Inirida,CO,77.67,overcast clouds,3.8653,-67.9239,Fuente del Guania Hotel de Lujo
489,Hambantota,LK,76.06,overcast clouds,6.1241,81.1185,Bungalow 63
491,Kantilo,IN,61.02,clear sky,20.35,85.1833,Hostel Building at Kantilo Nilamadhaba Mahavidyalaya
494,Bonthe,SL,77.74,light rain,7.5264,-12.505,Bonthe Holiday Village
496,Virudunagar,IN,73.22,broken clouds,9.6,77.9667,SRI RAM JB Residency
498,Richards Bay,ZA,67.14,few clouds,-28.783,32.0377,BON Hotel Waterfront Richards Bay
501,Ipubi,BR,79.09,broken clouds,-7.6519,-40.1489,37 hostel
503,Camana,PE,66.38,scattered clouds,-16.6228,-72.7111,Hostal Morales
504,Fatsa,TR,52.45,scattered clouds,41.0278,37.5014,Yalcin Resort Hotel
505,Atocha,BO,56.52,scattered clouds,-20.9333,-66.2333,ALOJAMIENTO RESTAURANT BARQUITO
509,Chimoio,MZ,64.35,scattered clouds,-19.1164,33.4833,Residencial Dabhad
510,Vallenar,CL,72.7,overcast clouds,-28.5708,-70.7581,Humacao Bed & Breakfast
511,Fortuna,US,60.93,clear sky,40.5982,-124.1573,Super 8 by Wyndham Fortuna
513,Huarmey,PE,66.15,broken clouds,-10.0681,-78.1522,Hotel Miramar
515,San Jose,US,67.75,clear sky,37.3394,-121.895,The Westin San Jose
517,Quatre Cocos,MU,67.08,scattered clouds,-20.2078,57.7625,Sunrise Attitude Hotel
521,Bamenda,CM,62.49,overcast clouds,5.9527,10.1582,Ayaba
522,San Cristobal,VE,67.96,broken clouds,7.7669,-72.225,Pirineos
525,Lexington Park,US,51.64,moderate rain,38.2668,-76.4538,TownePlace Suites by Marriott Lexington Park Patuxent River Naval Air Station
526,Sabha,LY,61.77,overcast clouds,27.0377,14.4283,محطة ام الارانب -سبها مواصلات
528,Nador,MA,70.05,clear sky,35.174,-2.9287,Hôtel La Giralda
530,Caravelas,BR,76.57,overcast clouds,-17.7125,-39.2481,Pousada dos Navegantes
532,Benguela,AO,73.04,broken clouds,-12.5763,13.4055,Hotel Praia Morena
533,Misratah,LY,67.98,clear sky,32.3754,15.0925,Almasa Hotel
534,Niteroi,BR,74.82,light rain,-22.8833,-43.1036,Hotel Viareggio
536,Najran,SA,59.29,clear sky,17.4924,44.1277,محمد هادي ال فطيح
538,Likasi,CD,61.75,light rain,-10.9814,26.7333,TABERNACLE DE LIKASI
540,Okato,NZ,66.9,light rain,-39.2,173.8833,Goodin Country Garden
544,Highland,US,71.96,clear sky,34.1283,-117.2086,Hampton Inn & Suites Highland
547,Zaranj,AF,58.98,clear sky,30.9667,61.8833,کارگاه بلوک زنی سرهنگ
548,Santa Rosa,PH,79.09,scattered clouds,14.3122,121.1114,Erlyn’s Sta Rosa City Home
549,Lagoa,PT,63.68,clear sky,39.05,-27.9833,Casa Das Faias
551,Fortuna Foothills,US,68.22,broken clouds,32.6578,-114.4119,Fortuna De Oro RV Park
553,Nosy Varika,MG,72.03,light rain,-20.5833,48.5333,Hotel Volazara
561,Chum Phae,TH,75.69,overcast clouds,16.5443,102.0992,Major Grand
562,Saint-Pierre,RE,75.56,broken clouds,-21.3393,55.4781,Alize Plage
563,Sibu,MY,73.78,overcast clouds,2.3,111.8167,RH HOTEL (4 Star)
566,Port Hedland,AU,71.65,light intensity shower rain,-20.3167,118.5667,The Esplanade Hotel
569,Moree,AU,63.55,clear sky,-29.4667,149.85,Molika Springs Motel
571,Ridgecrest,US,64.26,clear sky,35.6225,-117.6709,SpringHill Suites by Marriott Ridgecrest
573,Les Cayes,HT,78.76,few clouds,18.2,-73.75,Villa Orphee
578,Cabra,ES,59.25,overcast clouds,37.4725,-4.4421,MS Fuente Las Piedras
579,Saldanha,ZA,63.46,light rain,-33.0117,17.9442,Blue Bay Lodge
580,Tamiahua,MX,65.57,light rain,21.2667,-97.45,Mission Of The Sun Hotel
581,Carutapera,BR,77.67,scattered clouds,-1.195,-46.02,Lidera
582,Palm Coast,US,77.0,clear sky,29.585,-81.2078,Hammock Beach Golf Resort & Spa
583,Rudsar,IR,57.52,broken clouds,37.1376,50.288,Hotel Bahar
586,Khuzdar,PK,59.43,clear sky,27.7384,66.6434,jhalwan Rent A Car Compny Moola Chotok
587,Tolga,DZ,63.63,clear sky,34.7222,5.3785,سجن طولقة
588,Yulara,AU,68.18,overcast clouds,-25.2406,130.9889,Desert Gardens Hotel - Ayers Rock Resort
589,Chiquinquira,CO,53.92,overcast clouds,5.6164,-73.8175,CASA SANTO DOMINGO
591,Antofagasta,CL,63.68,clear sky,-23.65,-70.4,"Holiday Inn Express Antofagasta, an IHG Hotel"
593,Kota Kinabalu,MY,75.18,few clouds,5.9749,116.0724,Gaya Centre Hotel
596,Thurso,GB,50.86,overcast clouds,58.5927,-3.5259,Weigh Inn Hotel
600,San Carlos De Bariloche,AR,55.22,scattered clouds,-41.1456,-71.3082,Hotel Patagonia
604,Murray Bridge,AU,55.13,overcast clouds,-35.1167,139.2667,Balcony On Sixth Lodge
605,Nueva Guinea,NI,73.47,overcast clouds,11.6876,-84.4562,Posadita La Reyna
607,Daloa,CI,72.25,broken clouds,6.8774,-6.4502,Imans Hotel Daloa
609,Bam,IR,58.77,clear sky,29.106,58.357,Bam Tourist Hotel
613,Apt,FR,55.76,overcast clouds,43.8833,5.4,Vacances ULVF Castel Luberon
614,Ihosy,MG,65.71,overcast clouds,-22.4,46.1167,Tamana hôtel
615,Nisia Floresta,BR,77.23,scattered clouds,-6.0911,-35.2086,Rancho Crepusculo
616,Asyut,EG,61.27,clear sky,27.181,31.1837,فندق ميس إيجيبت Miss Egypt Hotel
617,Biltine,TD,72.07,clear sky,14.5333,20.9167,Hôtel Trois Étoiles de Biltine
618,Shenjiamen,CN,57.69,few clouds,29.9576,122.298,Jinjiang Inn Zhoushan Putuo Shenjiamen
621,Ruteng,ID,67.5,broken clouds,-8.6136,120.4721,Hotel FX 72
622,Ancud,CL,54.01,overcast clouds,-41.8697,-73.8203,Hotel Arena Gruesa
626,North Bend,US,64.31,clear sky,43.4065,-124.2243,Red Lion Hotel Coos Bay
628,Pitimbu,BR,78.44,scattered clouds,-7.4706,-34.8086,Reserva do Abiaí
629,Del Rio,US,57.6,clear sky,29.3627,-100.8968,"Holiday Inn Express & Suites del Rio, an IHG Hotel"
630,Warrnambool,AU,53.11,overcast clouds,-38.3833,142.4833,Lady Bay Resort
631,Concepcion Del Oro,MX,68.56,clear sky,24.6333,-101.4167,Hotel Hacienda San Javier
634,Mandsaur,IN,65.44,clear sky,24.0667,75.0667,hotel imperial
638,Japura,ID,73.49,overcast clouds,-0.3167,102.35,Rumah mbah Jamah
639,Safford,US,63.52,clear sky,32.834,-109.7076,SpringHill Suites by Marriott Thatcher
640,Brasilia,BR,64.62,heavy intensity rain,-15.7797,-47.9297,Sia Park Executive Hotel - Uma empresa Brasal
641,Ahipara,NZ,66.81,overcast clouds,-35.1667,173.1667,Ahipara Holiday Park
642,Khorramshahr,IR,73.17,few clouds,30.4397,48.1664,دفتر نمایندگی شرکت بازاریابان ایرانیان زمینBIZ
643,Brighton,GB,52.81,broken clouds,50.8284,-0.1395,"Holiday Inn Brighton - Seafront, an IHG Hotel"
644,Tocopilla,CL,65.37,few clouds,-22.092,-70.1979,Hotel Galvarino
645,Nagua,DO,78.85,few clouds,19.3832,-69.8474,Hotel Cambri
646,Dwarka,IN,78.57,clear sky,22.2394,68.9678,Hotel Narayan Avezika Comfort
652,Corinto,GR,58.89,overcast clouds,37.9407,22.9573,Ephira Hotel
655,Salvador,SV,79.2,scattered clouds,13.8333,-88.9167,Chico's Ranch
656,Nizwa,OM,72.16,clear sky,22.9333,57.5333,Orient Apartments
657,Puerto Narino,CO,73.78,overcast clouds,-3.7703,-70.3831,Eware Refugio Amazonico
658,Saint-Joseph,RE,74.46,light rain,-21.3667,55.6167,"""Plantation Bed and Breakfast"
663,Natal,BR,78.44,scattered clouds,-5.795,-35.2094,Villa Park Hotel | Natal
666,Teahupoo,PF,78.76,light rain,-17.8333,-149.2667,Vanira Lodge
672,Ibague,CO,68.07,overcast clouds,4.4389,-75.2322,Hotel Internacional y Centro de Convenciones Casa Morales
673,Stromness,GB,51.76,overcast clouds,58.965,-3.296,The Old Smokery
675,Farafangana,MG,73.38,overcast clouds,-22.8167,47.8333,Miarina
676,Tame,CO,75.83,broken clouds,6.461,-71.73,Hospedaje Santa Ana
678,Wanlaweyn,SO,76.5,scattered clouds,2.6185,44.8938,GAASHAAN HOME
679,Karpathos,GR,60.76,scattered clouds,35.507,27.2132,Alex
682,Broken Hill,AU,53.92,clear sky,-31.95,141.4333,Royal Exchange Hotel
683,Lindi,TZ,73.65,scattered clouds,-10.0,39.7167,Lindi paradise house
684,Cap Malheureux,MU,67.46,broken clouds,-19.9842,57.6142,Pereybere Hotel & Spa
685,Mecca,SA,77.74,clear sky,21.4267,39.8261,"Makkah Clock Royal Tower, A Fairmont Hotel"
688,Pyinmana,MM,68.29,few clouds,19.7333,96.2167,Bagan Umbra Hotel
691,Doha,QA,76.98,clear sky,25.2867,51.5333,Mövenpick Doha
